_id,hectares,name,latitud_c,longitud_c
620e6e5e60543d0026a01f0e,5000.0,La Florida,-32.8523513250307,-63.639976928354
63877cd7e1ed590030662d0a,100.0,Stock Test,-33.1291868716333,-64.3496294882996
63e641fc22ee080030ba838b,0.21,prueba,-32.98299765830865,-68.77519612876662
63e6454922ee080030ba8728,0.57,establecimiento de prueba,-32.9968225891936,-60.6338839968895
63efd78d65980f4378711b6f,0.02,prueba macsa,-34.164999,-64.07001
63ecf27ba9f1a40025792acf,1.09,MACSA,-34.164999,-64.07001
